[{"\uc2dc\uad70\uad6c":"\ubbf8\ucd94\ud640\uad6c","lat":37.4634703,"lng":126.6502865,"\uc81c\ubaa9":"[\ubbf8\ucd94\ud640\uad6c\uccad\uc704\uc0dd\uacfc]\uc74c\uc2dd\ubb38\ud654\uc5b4\uc6b8\ub9bc\ud55c\ub9c8\ub2f9 \ud589\uc0ac\uc6b4\uc601\uc9c0\uc6d0-\uc624\uc804\ub9cc","\ubaa8\uc9d1\uae30\uad00":"\uc778\ucc9c\uad11\uc5ed\uc2dc\ubbf8\ucd94\ud640\uad6c\uccad","formatted_address":"\ub300\ud55c\ubbfc\uad6d \uc778\ucc9c\uad11\uc5ed\uc2dc \ub0a8\uad6c \uc22d\uc7582\ub3d9 \ub3c5\uc815\uc774\ub85c 95","\ubd09\uc0ac\uae30\uac04":"2019-09-19 ~ 2019-09-19"},{"\uc2dc\uad70\uad6c":"\ubbf8\ucd94\ud640\uad6c","lat":37.441098,"lng":126.6692129,"\uc81c\ubaa9":"8\uc6d4 \uc790\uc6d0\ubd09\uc0ac \uc785\ubb38\uad50\uc721","\ubaa8\uc9d1\uae30\uad00":"\uc778\ucc9c\ubbf8\ucd94\ud640\uad6c\uc885\ud569\uc790\uc6d0\ubd09\uc0ac\uc13c\ud130","formatted_address":"\ub300\ud55c\ubbfc\uad6d \uc778\ucc9c\uad11\uc5ed\uc2dc \ub0a8\uad6c \ud559\uc775\ub3d9 \uc18c\uc131\ub85c 189 2\uce35","\ubd09\uc0ac\uae30\uac04":"2019-08-28 ~ 2019-08-28"},{"\uc2dc\uad70\uad6c":"\ubbf8\ucd94\ud640\uad6c","lat":37.4655316,"lng":126.6850287,"\uc81c\ubaa9":"[\uc885\ud569\uc0ac\ud68c\ubcf5\uc9c0\uad00]\ud55c\uac00\uc704 \ub098\ub214\ub300\uc794\uce58 \ud589\uc0ac\ubcf4\uc870","\ubaa8\uc9d1\uae30\uad00":"\ubbf8\ucd94\ud640\uc885\ud569\uc0ac\ud68c\ubcf5\uc9c0\uad00","formatted_address":"\ub300\ud55c\ubbfc\uad6d \uc778\ucc9c\uad11\uc5ed\uc2dc \ub0a8\uad6c \uc8fc\uc5485\ub3d9 22-59","\ubd09\uc0ac\uae30\uac04":"2019-09-05 ~ 2019-09-05"},{"\uc2dc\uad70\uad6c":"\ubbf8\ucd94\ud640\uad6c","lat":37.4679752,"lng":126.6623949,"\uc81c\ubaa9":"\uc131\uc778\uc9c0\uc801\uc7a5\uc560\uc778 \uccb4\uc721\ud65c\ub3d9 \uc9c0\uc6d0 \ubc0f \ubcf4\uc870","\ubaa8\uc9d1\uae30\uad00":"\ubbf8\ucd94\ud640\ub2e8\uae30\ubcf4\ud638\uc13c\ud130","formatted_address":"\ub300\ud55c\ubbfc\uad6d \uc778\ucc9c\uad11\uc5ed\uc2dc \ub0a8\uad6c \ub3c4\ud654\ub3d9 \uc11d\uc815\ub85c240\ubc88\uae38 5","\ubd09\uc0ac\uae30\uac04":"2019-09-03 ~ 2019-10-29"},{"\uc2dc\uad70\uad6c":"\ubbf8\ucd94\ud640\uad6c","lat":37.439185,"lng":126.6873279,"\uc81c\ubaa9":"[\ub3c4\ud638\ubd80\uccad\uc0ac]\uc804\ud1b5\uc758\uc0c1\uccb4\ud5d8\uad00\ub9ac","\ubaa8\uc9d1\uae30\uad00":"\uc778\ucc9c\ub3c4\ud638\ubd80\uccad\uc0ac","formatted_address":"\ub300\ud55c\ubbfc\uad6d \uc778\ucc9c\uad11\uc5ed\uc2dc \ub0a8\uad6c \ubb38\ud559\ub3d9 \ub9e4\uc18c\ud640\ub85c 589","\ubd09\uc0ac\uae30\uac04":"2019-09-03 ~ 2019-09-27"},{"\uc2dc\uad70\uad6c":"\ubbf8\ucd94\ud640\uad6c","lat":37.441098,"lng":126.6692129,"\uc81c\ubaa9":"[\uc790\uc6d0\ubd09\uc0ac\ub85c \uac00\uce58 \uc788\ub294 \ud734\uac00\ub97c!]- 2019 \ud558\uacc4 \"Volunteer Vacation\"","\ubaa8\uc9d1\uae30\uad00":"\uc778\ucc9c\ubbf8\ucd94\ud640\uad6c\uc885\ud569\uc790\uc6d0\ubd09\uc0ac\uc13c\ud130","formatted_address":"\ub300\ud55c\ubbfc\uad6d \uc778\ucc9c\uad11\uc5ed\uc2dc \ub0a8\uad6c \ud559\uc775\ub3d9 \uc18c\uc131\ub85c 189 2\uce35","\ubd09\uc0ac\uae30\uac04":"2019-07-08 ~ 2019-08-31"},{"\uc2dc\uad70\uad6c":"\ubbf8\ucd94\ud640\uad6c","lat":37.4401649,"lng":126.6626764,"\uc81c\ubaa9":"[\uc5c5\uc0ac\uc774\ud074\uc5d0\ucf54\uc13c\ud130]\ub098\ub214\uc7a5\ud130 \ud589\uc0ac\ubcf4\uc870","\ubaa8\uc9d1\uae30\uad00":"\uc778\ucc9c\uc5c5\uc0ac\uc774\ud074\uc5d0\ucf54\uc13c\ud130","formatted_address":"\ub300\ud55c\ubbfc\uad6d \uc778\ucc9c\uad11\uc5ed\uc2dc \ub0a8\uad6c \ud559\uc775\ub3d9 \ud55c\ub098\ub8e8\ub85c358\ubc88\uae38 7","\ubd09\uc0ac\uae30\uac04":"2019-09-07 ~ 2019-09-07"},{"\uc2dc\uad70\uad6c":"\ubbf8\ucd94\ud640\uad6c","lat":37.4634703,"lng":126.6502865,"\uc81c\ubaa9":"[\ubbf8\ucd94\ud640\uad6c\uccad\uc704\uc0dd\uacfc]\ubc00\uac00\ub8e8 \uc778\ud615\ub9cc\ub4e4\uae30 \uccb4\ud5d8\ubd80\uc2a4 \uc9c4\ud589","\ubaa8\uc9d1\uae30\uad00":"\uc778\ucc9c\uad11\uc5ed\uc2dc\ubbf8\ucd94\ud640\uad6c\uccad","formatted_address":"\ub300\ud55c\ubbfc\uad6d \uc778\ucc9c\uad11\uc5ed\uc2dc \ub0a8\uad6c \uc22d\uc7582\ub3d9 \ub3c5\uc815\uc774\ub85c 95","\ubd09\uc0ac\uae30\uac04":"2019-09-19 ~ 2019-09-19"},{"\uc2dc\uad70\uad6c":"\ubbf8\ucd94\ud640\uad6c","lat":37.4634703,"lng":126.6502865,"\uc81c\ubaa9":"[\uc704\uc0dd\uacfc]\uc74c\uc2dd\ubb38\ud654 \uc5b4\uc6b8\ub9bc \ud55c\ub9c8\ub2f9 \ud589\uc0ac\uc9c0\uc6d0","\ubaa8\uc9d1\uae30\uad00":"\uc778\ucc9c\uad11\uc5ed\uc2dc\ubbf8\ucd94\ud640\uad6c\uccad","formatted_address":"\ub300\ud55c\ubbfc\uad6d \uc778\ucc9c\uad11\uc5ed\uc2dc \ub0a8\uad6c \uc22d\uc7582\ub3d9 \ub3c5\uc815\uc774\ub85c 95","\ubd09\uc0ac\uae30\uac04":"2019-09-19 ~ 2019-09-19"},{"\uc2dc\uad70\uad6c":"\ubbf8\ucd94\ud640\uad6c","lat":37.441098,"lng":126.6692129,"\uc81c\ubaa9":"2019 \uc138\uc0c1\uc744 \uc787\ub294 \uc790\uc6d0\ubd09\uc0ac \uccb4\ud5d8\uad50\uc2e4","\ubaa8\uc9d1\uae30\uad00":"\uc778\ucc9c\ubbf8\ucd94\ud640\uad6c\uc885\ud569\uc790\uc6d0\ubd09\uc0ac\uc13c\ud130","formatted_address":"\ub300\ud55c\ubbfc\uad6d \uc778\ucc9c\uad11\uc5ed\uc2dc \ub0a8\uad6c \ud559\uc775\ub3d9 \uc18c\uc131\ub85c 189 2\uce35","\ubd09\uc0ac\uae30\uac04":"2019-07-22 ~ 2019-08-31"},{"\uc2dc\uad70\uad6c":"\ubbf8\ucd94\ud640\uad6c","lat":37.4376638,"lng":126.6715727,"\uc81c\ubaa9":"[\uc778\ucc9c\ubcf4\uc721\uc6d0] \ub180\uc774\uc9c0\ub3c4\ubd09\uc0ac\ud65c\ub3d9 \ubd09\uc0ac\uc790 \ubaa8\uc9d1\ud569\ub2c8\ub2e4 ^^","\ubaa8\uc9d1\uae30\uad00":"\uc778\ucc9c\ubcf4\uc721\uc6d0","formatted_address":"\ub300\ud55c\ubbfc\uad6d \uc778\ucc9c\uad11\uc5ed\uc2dc \ub0a8\uad6c \ud559\uc7751\ub3d9 \ub9e4\uc18c\ud640\ub85c446\ubc88\uae38 50","\ubd09\uc0ac\uae30\uac04":"2019-07-01 ~ 2019-09-30"}]